name,acres,lon,lat,reporter,cause
BOUNDARY,537627.0,-146.8858,65.2663,Alaska Fire Service,Natural
DALL CITY,483280.0,-149.8843,66.3029,Alaska Fire Service,Natural
BILLY CK,463994.0,-143.819,63.8163,Alaska Fire Service,Natural
NORTH DAG,419884.0,-152.2315,65.7467,Alaska Fire Service,Natural
PINGO,403993.0,-146.3702,67.2071,Alaska Fire Service,Natural
WINTER TRAILL,344833.0,-145.346,66.9597,Alaska Fire Service,Natural
CHICKEN 1,320155.0,-142.0023,64.0163,Alaska Fire Service,Natural
PORCUPINE,284595.0,-142.6689,63.4497,Alaska Fire Service,Natural
BONANZA CK,265919.9,-157.1933,64.4677,Alaska Fire Service,Natural
EDWARDSCR,243900.0,-143.1724,65.5169,Alaska Fire Service,Natural
PREACHER CREEK,243254.0,-145.0525,65.983,Alaska Fire Service,Natural
WOLF CREEK,214868.7,-145.0594,65.2782,Alaska Fire Service,Natural
BOLGEN CREEK,201894.0,-144.3547,65.713,Alaska Fire Service,Natural
CAMP CREEK,175815.0,-145.16669998,64.33333999,Delta Area,Natural
HODZANA RV,163239.0,-148.836,66.7329,Alaska Fire Service,Natural
EVANSVILLE,135627.0,-151.5027,66.9112,Alaska Fire Service,Natural
GARDINER C,125643.0,-141.3355,63.083,Alaska Fire Service,Natural
WILLOW,119500.0,-111.60472222,34.08111111,Tonto National Forest,Natural
CLAWANMENK,108577.0,-151.4143,66.5245,Alaska Fire Service,Natural
DEER CREEK,103092.0,-141.984,64.898,Alaska Fire Service,Natural
BIG YETNA,98418.4,-158.7524,62.7993,Alaska Fire Service,Natural
FT HAMLIN,97615.0,-149.4879,65.914,Alaska Fire Service,Natural
WALLSTREET,89279.0,-141.6856,64.0663,Alaska Fire Service,Natural
LOWER MOUT,87413.0,-146.2395,66.346,Alaska Fire Service,Natural
NATION RIV,66832.0,-141.524,65.193,Alaska Fire Service,Natural
KANDIK RIV,65990.0,-141.5246,65.6439,Alaska Fire Service,Natural
PEPPIN,64488.0,-105.43333333,33.60138889,Lincoln National Forest,Natural
BOULDER CK,63057.0,-143.486,67.4497,Alaska Fire Service,Natural
CRAZY,52056.0,-145.2705,65.7699,Alaska Fire Service,Natural
GRAYLINGFK,48307.0,-142.2859,66.2164,Alaska Fire Service,Natural
LUCKY CK,48232.0,-141.719,64.2997,Alaska Fire Service,Natural
KING CREEK,40599.0,-141.3856,64.3997,Alaska Fire Service,Natural
RUMSEY                   ,39138.0,-122.27388888,38.91611111,Sonoma-Lake Napa Unit,Missing data/not specified/undetermined
ROCK CR,37363.0,-145.405,65.8235,Alaska Fire Service,Natural
IMPASABLE 1,34660.0,-82.48333333,30.35833333,National Forests in Florida,Debris and open burning
MUD FORK,33952.0,-149.0867,65.5001,Alaska Fire Service,Natural
TORS,30408.0,-146.16669998,64.91665998,Fairbanks Area,Natural
MIDBIRCH C,30294.0,-144.3692,65.9997,Alaska Fire Service,Natural
DEEP HARBOR,29700.0,-120.51972222,48.085,Okanogan-Wenatchee National Forest,Natural
HAT LIE LA,29680.0,-145.3145,66.3521,Alaska Fire Service,Natural
NUTTALL,29400.0,-109.99055556,32.73861111,Coronado National Forest,Natural
INDIAN GRA,26610.0,-141.3596,65.5861,Alaska Fire Service,Natural
EAST FORK,26279.0,-84.6,30.13333333,National Forests in Florida,Arson/incendiarism
RUNT FORK,24120.0,-141.297,66.2247,Alaska Fire Service,Natural
LOUIS LAKE,22193.0,-157.2548,65.2413,Alaska Fire Service,Natural
LSNOHOMISH,21719.0,-152.5357,63.7828,Alaska Fire Service,Natural
THE MICCOSUKEE FIRE,20200.0,-80.47305001,25.74917002,Florida Forest Service,Natural
AMMERMAN M,19815.0,-141.1593,68.4284,Alaska Fire Service,Natural
ANOMALY,19667.0,-142.7189,63.9163,Alaska Fire Service,Natural
SQUARE,18235.0,-113.9425,37.3278,Cedar City Field Office,Natural
PINES,17418.0,-118.65527778,34.73666667,Angeles National Forest,Missing data/not specified/undetermined
NORUTAKH 2,17397.0,-154.5565,66.6414,Alaska Fire Service,Natural
POT PEAK,17226.0,-120.31527778,47.93888889,Okanogan-Wenatchee National Forest,Natural
JACKET,17218.9,-111.35722222,35.04444444,Coconino National Forest,Natural
POWER,16823.0,-120.21166667,38.52333333,Eldorado National Forest,Equipment and vehicle use
KP,16625.0,-109.28944444,33.58638889,Apache-Sitgreaves National Forest,Recreation and ceremony
CERRITO,16460.0,-117.4175,33.75,California Desert District,Equipment and vehicle use
FISCHER,16424.0,-120.56861111,47.56083333,Okanogan-Wenatchee National Forest,Equipment and vehicle use
TATALINA,16025.0,-148.6577,65.1246,Alaska Fire Service,Natural
CHAMPIONCK,15591.0,-141.7023,64.5397,Alaska Fire Service,Natural
BULLION CK,15563.0,-142.469,64.4163,Alaska Fire Service,Natural
WOODCHOPPE,14904.0,-143.2477,65.3494,Alaska Fire Service,Natural
LOG SPRING,13539.0,-121.4531,45.0215,Warm Springs Agency,Misuse of fire by a minor
FRENCH,12535.0,-122.6409,40.681,Whiskeytown National Recreation Area,Arson/incendiarism
GEYSERS,12525.0,-122.725,38.770833,Sonoma-Lake Napa Unit,Missing data/not specified/undetermined
LK TODATON,12377.0,-152.9496,66.1314,Alaska Fire Service,Natural
CROWN,11966.0,-118.2,34.4325,Angeles National Forest,Equipment and vehicle use
AMERICAN S,11728.0,-141.3473,64.5664,Alaska Fire Service,Natural
UVGOON CR,11231.3,-162.3196,67.766,Noatak Preserve,Natural
BEAR,10484.0,-122.24722222,40.70333333,Shasta-Trinity National Forest,Equipment and vehicle use
HILLBILLY,10378.0,-146.5445,63.9818,Alaska Fire Service,Natural
HAWKINS 2,10000.0,-113.89027778,37.46583333,Dixie National Forest,Natural
MINTO 1,9951.8,-149.2524,65.0162,Alaska Fire Service,Natural
EAGLE,8945.0,-117.06777778,33.46666667,Cleveland National Forest,Missing data/not specified/undetermined
PICNIC ROCK,8908.0,-105.23,40.67166667,Arapaho and Roosevelt National Forests and Pawnee National Grassland,Debris and open burning
WATERFALL,8723.0,-119.82361111,39.15444444,Humboldt-Toiyabe National Forest,Recreation and ceremony
RODO RIVER,8715.7,-159.2191,64.166,Alaska Fire Service,Natural
OREGON CK,8656.3,-163.3476,65.1259,Alaska Fire Service,Natural
599 GLACIER CREEK,8600.0,-150.5833,60.1,Kenai National Wildlife Refuge,Recreation and ceremony
SEDGWICK,8595.0,-108.14611111,35.19805556,Cibola National Forest,Misuse of fire by a minor
MATAGUAY,8500.0,-116.7,33.2333,California Desert District,Arson/incendiarism
NICKEL,8404.0,-114.14,36.5875,Southern Nevada District Office,Natural
TOKOMA BLUFF,8304.0,-144.0063,65.5355,Alaska Fire Service,Natural
ROTENBERGER FIRE,8000.0,-80.77723002,26.33388998,Florida Forest Service,Equipment and vehicle use
HAWKINS 1,8000.0,-113.91027778,37.46166667,Dixie National Forest,Natural
THREE FORKS,7905.0,-109.33861111,33.85444444,Apache-Sitgreaves National Forest,Smoking
GREASEWOOD,7815.0,-108.189,39.9508,"Northwest District, Craig",Natural
FREDS,7700.0,-120.26,38.78,Eldorado National Forest,Power generation/transmission/distribution
EAST FIRE,7600.0,-80.53110998,26.26944001,Florida Forest Service,Natural
GAVIOTA,7440.0,-120.22694444,34.50777778,Los Padres National Forest,Missing data/not specified/undetermined
DAWSON 31,7413.2,-141.0084,64.8047,Alaska Fire Service,Natural
LOUISBURGRADE,7330.5,-96.19824457,45.20893453,Minnesota Department of Natural Resources,Arson/incendiarism
WALDRON,7022.0,-149.459,65.8757,Alaska Fire Service,Equipment and vehicle use
KRAUSE,7000.0,-96.414121,39.394116,Kansas Forest Service,Missing data/not specified/undetermined
WOOD RIVER,6993.0,-148.4691,64.5329,Alaska Fire Service,Natural
MUD FORK 2,6947.0,-149.3161,65.4698,Alaska Fire Service,Natural
WILLOW CR,6937.0,-147.7374,64.5079,Alaska Fire Service,Natural
SQUARE2,6527.0,-113.8391,37.3233,Cedar City Field Office,Natural
CLIFF CK,6352.2,-163.0446,64.9276,Alaska Fire Service,Natural
MYRTLE CRE,6271.0,-148.5858,65.5662,Alaska Fire Service,Natural
FOOTHILL,6061.0,-118.51583333,34.335,Angeles National Forest,Power generation/transmission/distribution
UPPER HEALY RIVER,6035.0,-143.83330001,64.13333,Delta Area,Natural
UNIT 3-04-1W,6018.0,-93.4589,29.9531,Sabine National Wildlife Refuge,Arson/incendiarism
GATOR FIRE,6000.0,-80.61027999,26.13943998,Florida Forest Service,Equipment and vehicle use
WEST FORK,5825.7002,-155.41670003,63.31667002,Southwest Area,Natural
ROCK CREEK,5750.0,-144.51669999,64.53332998,Delta Area,Natural
GRANNY,5649.0,-108.31166667,33.09861111,Gila National Forest,Natural
MEADOW,5633.0,-119.5702,37.6569,Yosemite National Park,Natural
CEDAR CREE,5500.0,-96.2831,36.767,Osage Agency,Missing data/not specified/undetermined
LOOKOUT,5280.0,-105.79722222,34.30305556,Cibola National Forest,Recreation and ceremony
CITRUS,5243.0,-112.8138,32.9906,Phoenix District Office,Debris and open burning
CHROME,5163.0,-115.5009,39.9499,Ely District Office,Natural
UNIT 1 WF,5150.0,-94.22861111,29.63277778,McFaddin National Wildlife Refuge,Missing data/not specified/undetermined
HOPKINS CA,5072.0,-119.1684,48.149,Colville Agency,Natural
MINERAL,5000.0,-120.4002,39.0488,Central California District,Arson/incendiarism
FKU 7654                 ,5000.0,-116.945,36.31194444,Fresno-Kings Unit,Debris and open burning
CACHE,4864.0,-145.0733,65.6291,Alaska Fire Service,Natural
PINE PARK 2,4799.0,-114.01666667,37.54611111,Dixie National Forest,Natural
SIX MILE,4762.0,-111.60138889,39.18972222,Manti-Lasal National Forest,Natural
BLAND MT 2,4705.0,-123.1287,42.9526,Roseburg District,Missing data/not specified/undetermined
BASIN DRAW,4700.0,-104.267778,44.662222,Crook County,Missing data/not specified/undetermined
WEBBER,4311.0,-111.3675,34.42611111,Tonto National Forest,Recreation and ceremony
GRASSY,4232.0,-120.13638889,42.39416667,Fremont-Winema National Forest,Natural
BEEBE,4205.0,-119.9759,47.8179,Spokane District,Power generation/transmission/distribution
CAMPBELL,4187.0,-108.6087,38.408,"Southwest District, Montrose",Natural
SANTA FE SWAMP FIRE,4170.0,-82.127778,29.796389,Florida Forest Service,Missing data/not specified/undetermined
BEAR CREEK,4066.0,-159.5775,63.8626,Alaska Fire Service,Natural
CHANDALAR,4061.0,-143.6383,67.2166,Alaska Fire Service,Natural
SIMS,4030.0,-123.57111111,40.71833333,Six Rivers National Forest,Power generation/transmission/distribution
MUD LAKE,4000.0,-120.835134,46.775165,Washington State Department of Natural Resources Headquarters,Recreation and ceremony
HILLSBORO CANAL,4000.0,-80.40926,26.42543,Arthur R. Marshall/Loxahatchee National Wildlife Refuge,Natural
WEST FIRE,3900.0,-80.56389001,26.28389001,Florida Forest Service,Natural
TOMMY LK,3879.0,-142.7526,66.2664,Alaska Fire Service,Natural
VERBENIA,3833.0,-116.70694444,33.90416667,San Bernardino National Forest,Missing data/not specified/undetermined
THE EAST 41ST STREET FIRE,3800.0,-80.42694002,25.84805997,Florida Forest Service,Natural
DEEP CREEK,3740.0,-103.5425,46.47861111,Dakota Prairie National Grasslands,Equipment and vehicle use
MELTON,3667.0,-116.9178,33.6014,California Desert District,Equipment and vehicle use
HIGH PLAINS - 1,3500.0,-101.55860001,35.22305997,Texas A & M Forest Service,Missing data/not specified/undetermined
HWY 4 #2                 ,3443.0,-120.73305555,37.93694444,Tuolumne-Calaveras Unit,Missing data/not specified/undetermined
TATALINA 2,3442.0,-148.8833,65.1268,Alaska Fire Service,Natural
STRAYLOR,3422.0,-121.11722222,40.83416667,Lassen National Forest,Equipment and vehicle use
BIG CANYON,3415.0,-110.0824,39.43,Moab Field Office,Natural
BLUFF,3413.0,-121.3808,40.4738,Lassen Volcanic National Park,Natural
THOMPSON PARK FIRE,3400.0,-80.45222002,25.92249998,Florida Forest Service,Missing data/not specified/undetermined
LITTLE BRADSHAW,3387.3,-106.09166667,45.16666667,Custer Gallatin National Forest,Natural
DMERON CPX,3380.0,-113.6152,37.3086,Cedar City Field Office,Natural
AGGIE 2,3325.0,-148.18330001,65.19999999,Fairbanks Area,Natural
VAMOOSA,3300.0,-96.6386,34.9926,Wewoka Agency,Missing data/not specified/undetermined
DEEP,3222.0,-118.71666667,36.15111111,Sequoia National Forest,Missing data/not specified/undetermined
COLE COMPLEX,3128.0,-119.53055556,38.55416667,Humboldt-Toiyabe National Forest,Natural
RINCON,3097.0,-108.26055556,33.14194444,Gila National Forest,Natural
CAMP 36,3052.0,-111.94388889,35.93805556,Kaibab National Forest,Natural
LACEY GULCH,3040.0,-106.55,45.208,Miles City Field Office,Missing data/not specified/undetermined
ROSETTA LANE,3014.0,-104.773889,41.018889,Casper Interagency Dispatch Center,Missing data/not specified/undetermined
PHO NORTH,3007.0,-80.748395,25.531279,Everglades National Park,Natural
ROTTONBERG,3000.0,-80.8665,26.3504,Seminole Tribe,Natural
PORTER WFU,2911.0,-115.50166667,44.47583333,Salmon-Challis National Forest,Natural
ROAD 1,2820.0,-82.29166667,30.46666667,National Forests in Florida,Missing data/not specified/undetermined
MCGRUDER,2806.0,-107.8534,38.9314,"Southwest District, Montrose",Natural
TROY CANYON,2800.0,-115.540833,38.311944,Humboldt-Toiyabe National Forest,Natural
MAIL DRAW,2792.7,-109.1785,40.7683,Vernal Field Office,Natural
ANDREW,2693.0,-119.7338,39.3327,Carson City District Office,Firearms and explosives use
E FORK KOY,2611.3,-160.5507,65.2777,Alaska Fire Service,Natural
RL313,2560.0,-95.5028,47.9875,Red Lake Agency,Debris and open burning
FISCHER,2543.0,-100.6307,46.3372,Standing Rock Agency,Equipment and vehicle use
TRIANGLE FIRE,2500.0,-80.48028001,25.97861002,Florida Forest Service,Natural
PATTISON                 ,2476.0,-120.89888888,38.19888888,Tuolumne-Calaveras Unit,Equipment and vehicle use
IRONGATE,2400.0,-122.450639,41.953881,Northern California District,Natural
HETCHY,2310.0,-119.7246,37.9544,Yosemite National Park,Arson/incendiarism
PLEASURE,2300.0,-116.82333333,33.49194444,San Bernardino National Forest,Missing data/not specified/undetermined
CRYSTAL LAKE,2265.0,-75.36972001,41.15639001,Pennsylvania Division of Forest Fire Protection,Arson/incendiarism
UNIT 5-03-4W,2233.0,-93.70694444,29.87444444,Sabine National Wildlife Refuge,Natural
SWEET GUM FIRE,2189.0,-81.93194001,28.39889002,Florida Forest Service,Arson/incendiarism
INNOKO,2151.6,-156.6025,63.9327,Alaska Fire Service,Natural
COOPERETOW,2134.0,-80.551174,25.745167,Everglades National Park,Natural
YUKON,2125.0,-143.6274,65.5413,Alaska Fire Service,Natural
INDIA,2040.0,-117.3175,33.369167,Marine Corps Base Camp Pendleton,Missing data/not specified/undetermined
OREGON,2030.0,-121.512169,39.591,Northern California District,Equipment and vehicle use
PINE HILL,2022.0,-109.53449999,45.70160002,Southern Land Office,Natural
DUSTIN,2000.0,-96.0736,35.2693,Okmulgee Field Office,Arson/incendiarism
FTSILL9/7,2000.0,-98.57638889,34.71972222,Wichita Mountains National Wildlife Refuge,Missing data/not specified/undetermined
ST JOHNS ASSIST,2000.0,-80.90833333,28.55416667,Merritt Island National Wildlife Refuge,Natural
UPSHAW,2000.0,-110.2865,33.4778,San Carlos Agency,Natural
GOLD CREEK,1993.8,-145.51669999,64.86667001,Fairbanks Area,Natural
ARAGONITE,1970.0,-113.02986,40.72272,Salt Lake Field Office,Railroad operations and maintenance
ELMER CITY,1929.0,-118.9503,47.9988,Colville Agency,Misuse of fire by a minor
SPLIT FIRE #2,1920.0,-95.1909,34.68879999,Oklahoma Division of Forestry,Arson/incendiarism
MAGPIE CAMP,1883.0,-103.5075,47.29166667,Dakota Prairie National Grasslands,Recreation and ceremony
BORDER 16,1880.0,-116.5509,32.6001,California Desert District,Debris and open burning
SIDWALTER,1880.0,-121.5345,44.9248,Warm Springs Agency,Arson/incendiarism
COTTONWOOD,1845.0,-116.6689,33.9833,California Desert District,Recreation and ceremony
RED BULL,1836.0,-111.37777778,40.01027778,Uinta-Wasatch-Cache National Forest,Natural
ROLLING PLAINS - 2,1835.0,-100.73329999,32.08332999,Texas A & M Forest Service,Natural
COOK,1800.0,-106.14111111,45.65083333,Custer Gallatin National Forest,Natural
LOW MT,1759.0,-113.7119,36.9278,Arizona Strip Field Office,Natural
T LAKE,1752.4,-143.9356,63.8663,Alaska Fire Service,Natural
EARLY,1750.0,-119.96222222,37.86944444,Stanislaus National Forest,Power generation/transmission/distribution
RL332,1716.0,-95.1406,47.8633,Red Lake Agency,Debris and open burning
DOF 301,1700.0,-81.47972222,26.11638889,Florida Panther National Wildlife Refuge,Natural
BOAT HOUSE FIRE,1700.0,-93.8,29.82333333,Sabine National Wildlife Refuge,Natural
MIDDLE RID,1674.0,-114.0005,37.4261,Cedar City Field Office,Natural
LONGSTREET,1670.0,-116.32277778,36.46472222,Ash Meadows National Wildlife Refuge,Natural
DISCOVERY,1669.0,-145.7886,66.0135,Alaska Fire Service,Natural
BEN HILL GRIFFIN,1660.0,-81.78471999,26.46556002,Florida Forest Service,Missing data/not specified/undetermined
QUARTZ 2,1648.4,-164.936,65.3326,Alaska Fire Service,Natural
CHITSIA CR,1635.0,-150.5632,64.1537,Alaska Fire Service,Natural
KESTER MTN. FIRE,1605.0,-94.57033997,35.66199998,Oklahoma Division of Forestry,Arson/incendiarism
PINETOP,1600.0,-95.7339,34.68879999,Oklahoma Division of Forestry,Debris and open burning
BIG BEND,1571.0,-147.7642,65.3996,Alaska Fire Service,Natural
BIG HORN,1552.0,-114.4864,36.8864,Ely District Office,Natural
BIG BLUFF,1544.0,-144.3775,65.8402,Alaska Fire Service,Natural
GULLY,1540.0,-95.56231719,47.80590555,Minnesota Department of Natural Resources,Arson/incendiarism
UNIT 2 N OF VASTAR WF,1503.9,-94.16027778,29.65305556,McFaddin National Wildlife Refuge,Natural
PELICAN SJR,1500.0,-121.168,37.613,San Luis National Wildlife Refuge,Arson/incendiarism
HALMA FIRE,1500.0,-96.58110666,48.67926991,Minnesota Department of Natural Resources,Arson/incendiarism
SHERIDAN STREET FIRE,1500.0,-80.46583001,26.02249998,Florida Forest Service,Natural
DUNNE RANCH,1500.0,-99.695971,37.056948,Kansas Forest Service,Missing data/not specified/undetermined
RICHARDTON,1500.0,-102.317112,46.785974,North Dakota State Forest Service,Missing data/not specified/undetermined
BT-11,1500.0,-76.420833,35.016667,Camp LeJeune,Missing data/not specified/undetermined
BLOCK HJ,1496.0,-80.6261,25.40364,Everglades National Park,Debris and open burning
SALT CREEK,1483.0,-111.84759,39.43564,Richfield Field Office,Natural
EAST FORK,1477.1,-153.8356,63.2494,Alaska Fire Service,Natural
SPLIT FIRE,1470.0,-95.19067,34.66515998,Oklahoma Division of Forestry,Arson/incendiarism
SECTION33,1435.0,-92.9125,48.5078,Voyageurs National Park,Natural
GRASS LAKE,1419.9,-156.3987,65.6258,Alaska Fire Service,Recreation and ceremony
SLOKHENJIK,1407.0,-152.6176,65.835,Alaska Fire Service,Natural
TACOMA PARK PLACE,1400.0,-98.25201,45.54663,South Dakota Wildland Fire Suppression,Missing data/not specified/undetermined
PERRY,1360.0,-111.9907,34.217,Phoenix District Office,Firearms and explosives use
OLD HIGHWAY              ,1347.0,-119.96694444,37.49805555,Merced-Mariposa Unit,Arson/incendiarism
EAST,1330.0,-118.69222222,34.57388889,Angeles National Forest,Equipment and vehicle use
SMALLARMS2,1324.0,-147.6441,64.806,Alaska Fire Service,Firearms and explosives use
CHE HARJO,1320.0,-96.495,35.3723,Chickasaw Agency,Debris and open burning
ANDERSON DRAINAGE,1309.7,-108.74249999,46.25449999,Southern Land Office,Natural
GATOS,1307.0,-120.560469,36.233819,Central California District,Equipment and vehicle use
SHEAR ROAD FIRE,1300.0,-81.49611111,26.11361111,Florida Panther National Wildlife Refuge,Natural
FOUKE,1299.0,-93.94915998,33.25750001,Arkansas Forestry Commission,Arson/incendiarism
WILLIAMS BUTTE,1257.0,-120.52361111,48.38777778,Okanogan-Wenatchee National Forest,Natural
KINCAID                  ,1246.0,-121.655,37.39611111,Santa Clara Unit,Equipment and vehicle use
BIG POND,1237.6,-97.3192,27.4214,Padre Island National Seashore,Missing data/not specified/undetermined
WILDSTEER,1220.0,-112.24111111,35.10111111,Kaibab National Forest,Natural
SHEEPFENCE,1206.0,-112.2063,37.325,Cedar City Field Office,Natural
ROSE,1200.0,-109.39944444,33.42388889,Apache-Sitgreaves National Forest,Debris and open burning
CEMENT                   ,1200.0,-121.97888888,38.30888888,Sonoma-Lake Napa Unit,Missing data/not specified/undetermined
ALLEN STUECKLE,1200.0,-99.68262997,45.86896998,South Dakota Wildland Fire Suppression,Debris and open burning
NEW,1200.0,-111.94666667,33.985,Tonto National Forest,Natural
RIVER BOTTOM,1200.0,-98.25718999,45.55019002,South Dakota Wildland Fire Suppression,Natural
MAD CAT,1200.0,-95.59288,34.69392999,Oklahoma Division of Forestry,Missing data/not specified/undetermined
BABCOCK FIRE,1200.0,-81.58777999,26.86193999,Florida Forest Service,Missing data/not specified/undetermined
SAMPSON CR,1192.0,-114.5492,39.9983,Ely District Office,Missing data/not specified/undetermined
DIAMOND 2,1150.0,-111.48055556,33.83583333,Tonto National Forest,Missing data/not specified/undetermined
FISH WF,1149.0,-96.31146,45.22574,Big Stone National Wildlife Refuge,Debris and open burning
HURST,1128.5,-156.8833,63.21666997,Southwest Area,Natural
CACHUMA,1127.0,-119.91138889,34.71972222,Los Padres National Forest,Equipment and vehicle use
ST HILAIRE,1120.0,-96.28580847,48.00455667,Minnesota Department of Natural Resources,Debris and open burning
WELL FIRE,1116.0,-108.2706,37.0311,Ute Mountain Ute Agency,Natural
TABLE,1097.0,-112.77137,40.87711,Salt Lake Field Office,Fireworks
SOUTH POT,1086.0,-115.48816,42.85,Twin  Falls District,Natural
UNIT 7-04-1W,1081.0,-93.71833333,29.85333333,Sabine National Wildlife Refuge,Natural
MID-BULL,1080.0,-119.98138889,39.56111111,Humboldt-Toiyabe National Forest,Natural
TRANSFER,1058.0,-112.035,35.95222222,Kaibab National Forest,Natural
COYOTE SPRINGS,1054.0,-115.0514,36.4437,Desert National Wildlife Refuge,Natural
COAL,1050.0,-109.1341,48.05,North Central Montana District,Natural
RIGGS,1048.0,-114.6964,37.2736,Ely District Office,Missing data/not specified/undetermined
PINEY ISLAND,1040.0,-76.05638889,38.37027778,Blackwater National Wildlife Refuge,Arson/incendiarism
NORTH STAR BUTTE,1030.0,-116.45694444,45.16277778,Payette National Forest,Natural
CICERO CREEK,1026.0,-91.022222,38.041667,Missouri Department of Conservation,Missing data/not specified/undetermined
FOX,1020.0,-111.295,33.71833333,Tonto National Forest,Natural
EAST COVE 05,1012.0,-93.21666667,29.83333333,Cameron Prarie National Wildlife Refuge,Arson/incendiarism
RUNWAY,1007.0,-117.466667,34.033333,San Bernardino National Forest,Missing data/not specified/undetermined
BEAR SPRING,1005.0,-114.10805556,45.555,Salmon-Challis National Forest,Natural
MACON SE,1005.0,-85.873225,32.311846,Alabama Forestry Commission,Arson/incendiarism
DULBI SL 2,1003.1,-156.3625,65.3483,Alaska Fire Service,Natural
WHITEROCK III,1000.0,-80.35056002,25.94971997,Florida Forest Service,Equipment and vehicle use
FB-U1,1000.0,-75.94166667,38.35833333,Blackwater National Wildlife Refuge,Missing data/not specified/undetermined
THE NORTH FIRE,1000.0,-80.85888998,26.48610997,Florida Forest Service,Natural
DITCH 20,1000.0,-95.32183411,48.23234334,Minnesota Department of Natural Resources,Arson/incendiarism
CARTER  CO #1,1000.0,-97.425,34.283333,Oklahoma Division of Forestry,Missing data/not specified/undetermined
SAGE BRUSH,1000.0,-103.503889,40.273889,Fort Collins Interagency Dispatch Center,Natural
EAGAN,1000.0,-93.224,44.825,Minnesota Valley National Wildlife Refuge,Recreation and ceremony
HILL COUNTRY - 6,1000.0,-98.36666999,30.21666999,Texas A & M Forest Service,Debris and open burning
SAN ISIDRO,1000.0,-98.58527778,26.96277778,South Texas Refuge Complex,Debris and open burning
